[
  {
   "address_components" : [
      {
         "long_name" : "46",
         "short_name" : "46",
         "types" : [ "street_number" ]
      },
      {
         "long_name" : "Moreno",
         "short_name" : "Moreno",
         "types" : [ "route" ]
      },
      {
         "long_name" : "Carhué",
         "short_name" : "Carhué",
         "types" : [ "locality", "political" ]
      },
      {
         "long_name" : "Adolfo Alsina",
         "short_name" : "Adolfo Alsina",
         "types" : [ "administrative_area_level_2", "political" ]
      },
      {
         "long_name" : "Buenos Aires",
         "short_name" : "Buenos Aires",
         "types" : [ "administrative_area_level_1", "political" ]
      },
      {
         "long_name" : "Argentina",
         "short_name" : "AR",
         "types" : [ "country", "political" ]
      }
   ],
   "formatted_address" : "Moreno 46, Carhué, Buenos Aires, Argentina",
   "geometry" : {
      "bounds" : {
         "northeast" : {
            "lat" : -37.1705775,
            "lng" : -62.7531461
         },
         "southwest" : {
            "lat" : -37.1705868,
            "lng" : -62.7531608
         }
      },
      "location" : {
         "lat" : -37.1705868,
         "lng" : -62.7531461
      },
      "location_type" : "RANGE_INTERPOLATED",
      "viewport" : {
         "northeast" : {
            "lat" : -37.1692331697085,
            "lng" : -62.7518044697085
         },
         "southwest" : {
            "lat" : -37.1719311302915,
            "lng" : -62.75450243029151
         }
      }
   },
   "place_id" : "EitNb3Jlbm8gNDYsIENhcmh1w6ksIEJ1ZW5vcyBBaXJlcywgQXJnZW50aW5h",
   "types" : [ "street_address" ]
},
{
   "address_components" : [
      {
         "long_name" : "46",
         "short_name" : "46",
         "types" : [ "street_number" ]
      },
      {
         "long_name" : "Moreno",
         "short_name" : "Moreno",
         "types" : [ "route" ]
      },
      {
         "long_name" : "Puerto Madero",
         "short_name" : "Puerto Madero",
         "types" : [ "political", "sublocality", "sublocality_level_1" ]
      },
      {
         "long_name" : "Buenos Aires",
         "short_name" : "CABA",
         "types" : [ "locality", "political" ]
      },
      {
         "long_name" : "Comuna 1",
         "short_name" : "Comuna 1",
         "types" : [ "administrative_area_level_2", "political" ]
      },
      {
         "long_name" : "Ciudad Autónoma de Buenos Aires",
         "short_name" : "CABA",
         "types" : [ "administrative_area_level_1", "political" ]
      },
      {
         "long_name" : "Argentina",
         "short_name" : "AR",
         "types" : [ "country", "political" ]
      },
      {
         "long_name" : "C1091",
         "short_name" : "C1091",
         "types" : [ "postal_code" ]
      },
      {
         "long_name" : "AAB",
         "short_name" : "AAB",
         "types" : [ "postal_code_suffix" ]
      }
   ],
   "formatted_address" : "Moreno 46, C1091AAB CABA, Argentina",
   "geometry" : {
      "bounds" : {
         "northeast" : {
            "lat" : -34.6110549,
            "lng" : -58.3677211
         },
         "southwest" : {
            "lat" : -34.6110701,
            "lng" : -58.3677241
         }
      },
      "location" : {
         "lat" : -34.6110549,
         "lng" : -58.3677241
      },
      "location_type" : "RANGE_INTERPOLATED",
      "viewport" : {
         "northeast" : {
            "lat" : -34.6097135197085,
            "lng" : -58.36637361970849
         },
         "southwest" : {
            "lat" : -34.6124114802915,
            "lng" : -58.3690715802915
         }
      }
   },
   "place_id" : "EiNNb3Jlbm8gNDYsIEMxMDkxQUFCIENBQkEsIEFyZ2VudGluYQ",
   "types" : [ "street_address" ]
},
{
   "address_components" : [
      {
         "long_name" : "46",
         "short_name" : "46",
         "types" : [ "street_number" ]
      },
      {
         "long_name" : "Moreno",
         "short_name" : "Moreno",
         "types" : [ "route" ]
      },
      {
         "long_name" : "Esperanza",
         "short_name" : "Esperanza",
         "types" : [ "locality", "political" ]
      },
      {
         "long_name" : "Las Colonias",
         "short_name" : "Las Colonias",
         "types" : [ "administrative_area_level_2", "political" ]
      },
      {
         "long_name" : "Santa Fe",
         "short_name" : "Santa Fe",
         "types" : [ "administrative_area_level_1", "political" ]
      },
      {
         "long_name" : "Argentina",
         "short_name" : "AR",
         "types" : [ "country", "political" ]
      },
      {
         "long_name" : "S3080",
         "short_name" : "S3080",
         "types" : [ "postal_code" ]
      },
      {
         "long_name" : "HCB",
         "short_name" : "HCB",
         "types" : [ "postal_code_suffix" ]
      }
   ],
   "formatted_address" : "Moreno 46, S3080HCB Esperanza, Santa Fe, Argentina",
   "geometry" : {
      "bounds" : {
         "northeast" : {
            "lat" : -31.4658861,
            "lng" : -60.9376097
         },
         "southwest" : {
            "lat" : -31.4658904,
            "lng" : -60.93762779999999
         }
      },
      "location" : {
         "lat" : -31.4658861,
         "lng" : -60.93762779999999
      },
      "location_type" : "RANGE_INTERPOLATED",
      "viewport" : {
         "northeast" : {
            "lat" : -31.4645392697085,
            "lng" : -60.93626976970849
         },
         "southwest" : {
            "lat" : -31.4672372302915,
            "lng" : -60.9389677302915
         }
      }
   },
   "place_id" : "EjJNb3Jlbm8gNDYsIFMzMDgwSENCIEVzcGVyYW56YSwgU2FudGEgRmUsIEFyZ2VudGluYQ",
   "types" : [ "street_address" ]
},
{
   "address_components" : [
      {
         "long_name" : "46",
         "short_name" : "46",
         "types" : [ "street_number" ]
      },
      {
         "long_name" : "Moreno",
         "short_name" : "Moreno",
         "types" : [ "route" ]
      },
      {
         "long_name" : "Cruz del Eje",
         "short_name" : "Cruz del Eje",
         "types" : [ "locality", "political" ]
      },
      {
         "long_name" : "Cruz del Eje",
         "short_name" : "Cruz del Eje",
         "types" : [ "administrative_area_level_2", "political" ]
      },
      {
         "long_name" : "Córdoba",
         "short_name" : "Córdoba",
         "types" : [ "administrative_area_level_1", "political" ]
      },
      {
         "long_name" : "Argentina",
         "short_name" : "AR",
         "types" : [ "country", "political" ]
      }
   ],
   "formatted_address" : "Moreno 46, Cruz del Eje, Córdoba, Argentina",
   "geometry" : {
      "bounds" : {
         "northeast" : {
            "lat" : -30.7257032,
            "lng" : -64.8043155
         },
         "southwest" : {
            "lat" : -30.7257112,
            "lng" : -64.8043318
         }
      },
      "location" : {
         "lat" : -30.7257032,
         "lng" : -64.8043155
      },
      "location_type" : "RANGE_INTERPOLATED",
      "viewport" : {
         "northeast" : {
            "lat" : -30.7243582197085,
            "lng" : -64.80297466970849
         },
         "southwest" : {
            "lat" : -30.7270561802915,
            "lng" : -64.8056726302915
         }
      }
   },
   "place_id" : "EixNb3Jlbm8gNDYsIENydXogZGVsIEVqZSwgQ8OzcmRvYmEsIEFyZ2VudGluYQ",
   "types" : [ "street_address" ]
},
{
   "address_components" : [
      {
         "long_name" : "46",
         "short_name" : "46",
         "types" : [ "street_number" ]
      },
      {
         "long_name" : "Moreno",
         "short_name" : "Moreno",
         "types" : [ "route" ]
      },
      {
         "long_name" : "Ramos Mejía",
         "short_name" : "Ramos Mejía",
         "types" : [ "locality", "political" ]
      },
      {
         "long_name" : "La Matanza",
         "short_name" : "La Matanza",
         "types" : [ "administrative_area_level_2", "political" ]
      },
      {
         "long_name" : "Buenos Aires",
         "short_name" : "Buenos Aires",
         "types" : [ "administrative_area_level_1", "political" ]
      },
      {
         "long_name" : "Argentina",
         "short_name" : "AR",
         "types" : [ "country", "political" ]
      },
      {
         "long_name" : "B1704",
         "short_name" : "B1704",
         "types" : [ "postal_code" ]
      },
      {
         "long_name" : "BGB",
         "short_name" : "BGB",
         "types" : [ "postal_code_suffix" ]
      }
   ],
   "formatted_address" : "Moreno 46, B1704BGB Ramos Mejía, Buenos Aires, Argentina",
   "geometry" : {
      "bounds" : {
         "northeast" : {
            "lat" : -34.6409023,
            "lng" : -58.5629053
         },
         "southwest" : {
            "lat" : -34.6409051,
            "lng" : -58.5629237
         }
      },
      "location" : {
         "lat" : -34.6409023,
         "lng" : -58.5629053
      },
      "location_type" : "RANGE_INTERPOLATED",
      "viewport" : {
         "northeast" : {
            "lat" : -34.6395547197085,
            "lng" : -58.5615655197085
         },
         "southwest" : {
            "lat" : -34.6422526802915,
            "lng" : -58.56426348029151
         }
      }
   },
   "place_id" : "EjlNb3Jlbm8gNDYsIEIxNzA0QkdCIFJhbW9zIE1lasOtYSwgQnVlbm9zIEFpcmVzLCBBcmdlbnRpbmE",
   "types" : [ "street_address" ]
},
{
   "address_components" : [
      {
         "long_name" : "46",
         "short_name" : "46",
         "types" : [ "street_number" ]
      },
      {
         "long_name" : "Moreno",
         "short_name" : "Moreno",
         "types" : [ "route" ]
      },
      {
         "long_name" : "Lobos",
         "short_name" : "Lobos",
         "types" : [ "locality", "political" ]
      },
      {
         "long_name" : "Lobos",
         "short_name" : "Lobos",
         "types" : [ "administrative_area_level_2", "political" ]
      },
      {
         "long_name" : "Buenos Aires",
         "short_name" : "Buenos Aires",
         "types" : [ "administrative_area_level_1", "political" ]
      },
      {
         "long_name" : "Argentina",
         "short_name" : "AR",
         "types" : [ "country", "political" ]
      }
   ],
   "formatted_address" : "Moreno 46, Lobos, Buenos Aires, Argentina",
   "geometry" : {
      "bounds" : {
         "northeast" : {
            "lat" : -35.1861967,
            "lng" : -59.0961692
         },
         "southwest" : {
            "lat" : -35.1861972,
            "lng" : -59.09618789999999
         }
      },
      "location" : {
         "lat" : -35.1861967,
         "lng" : -59.0961692
      },
      "location_type" : "RANGE_INTERPOLATED",
      "viewport" : {
         "northeast" : {
            "lat" : -35.1848479697085,
            "lng" : -59.09482956970849
         },
         "southwest" : {
            "lat" : -35.1875459302915,
            "lng" : -59.09752753029151
         }
      }
   },
   "place_id" : "EilNb3Jlbm8gNDYsIExvYm9zLCBCdWVub3MgQWlyZXMsIEFyZ2VudGluYQ",
   "types" : [ "street_address" ]
},
{
   "address_components" : [
      {
         "long_name" : "46",
         "short_name" : "46",
         "types" : [ "street_number" ]
      },
      {
         "long_name" : "Moreno",
         "short_name" : "Moreno",
         "types" : [ "route" ]
      },
      {
         "long_name" : "San Antonio",
         "short_name" : "San Antonio",
         "types" : [ "administrative_area_level_2", "political" ]
      },
      {
         "long_name" : "Río Negro",
         "short_name" : "Río Negro",
         "types" : [ "administrative_area_level_1", "political" ]
      },
      {
         "long_name" : "Argentina",
         "short_name" : "AR",
         "types" : [ "country", "political" ]
      }
   ],
   "formatted_address" : "Moreno 46, Río Negro, Argentina",
   "geometry" : {
      "bounds" : {
         "northeast" : {
            "lat" : -40.7280963,
            "lng" : -64.94058099999999
         },
         "southwest" : {
            "lat" : -40.7281007,
            "lng" : -64.9405989
         }
      },
      "location" : {
         "lat" : -40.7280963,
         "lng" : -64.94058099999999
      },
      "location_type" : "RANGE_INTERPOLATED",
      "viewport" : {
         "northeast" : {
            "lat" : -40.7267495197085,
            "lng" : -64.93924096970849
         },
         "southwest" : {
            "lat" : -40.7294474802915,
            "lng" : -64.9419389302915
         }
      }
   },
   "place_id" : "EiBNb3Jlbm8gNDYsIFLDrW8gTmVncm8sIEFyZ2VudGluYQ",
   "types" : [ "street_address" ]
},
{
   "address_components" : [
      {
         "long_name" : "46",
         "short_name" : "46",
         "types" : [ "street_number" ]
      },
      {
         "long_name" : "Moreno",
         "short_name" : "Moreno",
         "types" : [ "route" ]
      },
      {
         "long_name" : "Centro",
         "short_name" : "Centro",
         "types" : [ "neighborhood", "political" ]
      },
      {
         "long_name" : "San Carlos de Bariloche",
         "short_name" : "San Carlos de Bariloche",
         "types" : [ "locality", "political" ]
      },
      {
         "long_name" : "Bariloche",
         "short_name" : "Bariloche",
         "types" : [ "administrative_area_level_2", "political" ]
      },
      {
         "long_name" : "Río Negro",
         "short_name" : "Río Negro",
         "types" : [ "administrative_area_level_1", "political" ]
      },
      {
         "long_name" : "Argentina",
         "short_name" : "AR",
         "types" : [ "country", "political" ]
      }
   ],
   "formatted_address" : "Moreno 46, San Carlos de Bariloche, Río Negro, Argentina",
   "geometry" : {
      "bounds" : {
         "northeast" : {
            "lat" : -41.1346446,
            "lng" : -71.30918339999999
         },
         "southwest" : {
            "lat" : -41.1346585,
            "lng" : -71.30918629999999
         }
      },
      "location" : {
         "lat" : -41.1346446,
         "lng" : -71.30918339999999
      },
      "location_type" : "RANGE_INTERPOLATED",
      "viewport" : {
         "northeast" : {
            "lat" : -41.1333025697085,
            "lng" : -71.3078358697085
         },
         "southwest" : {
            "lat" : -41.1360005302915,
            "lng" : -71.3105338302915
         }
      }
   },
   "place_id" : "EjlNb3Jlbm8gNDYsIFNhbiBDYXJsb3MgZGUgQmFyaWxvY2hlLCBSw61vIE5lZ3JvLCBBcmdlbnRpbmE",
   "types" : [ "street_address" ]
},
{
   "address_components" : [
      {
         "long_name" : "46",
         "short_name" : "46",
         "types" : [ "street_number" ]
      },
      {
         "long_name" : "Moreno",
         "short_name" : "Moreno",
         "types" : [ "route" ]
      },
      {
         "long_name" : "Quilmes",
         "short_name" : "Quilmes",
         "types" : [ "locality", "political" ]
      },
      {
         "long_name" : "Quilmes",
         "short_name" : "Quilmes",
         "types" : [ "administrative_area_level_2", "political" ]
      },
      {
         "long_name" : "Buenos Aires",
         "short_name" : "Buenos Aires",
         "types" : [ "administrative_area_level_1", "political" ]
      },
      {
         "long_name" : "Argentina",
         "short_name" : "AR",
         "types" : [ "country", "political" ]
      }
   ],
   "formatted_address" : "Moreno 46, Quilmes, Buenos Aires, Argentina",
   "geometry" : {
      "bounds" : {
         "northeast" : {
            "lat" : -34.7134948,
            "lng" : -58.26498429999999
         },
         "southwest" : {
            "lat" : -34.7135028,
            "lng" : -58.2650003
         }
      },
      "location" : {
         "lat" : -34.7134948,
         "lng" : -58.26498429999999
      },
      "location_type" : "RANGE_INTERPOLATED",
      "viewport" : {
         "northeast" : {
            "lat" : -34.7121498197085,
            "lng" : -58.2636433197085
         },
         "southwest" : {
            "lat" : -34.7148477802915,
            "lng" : -58.26634128029151
         }
      }
   },
   "place_id" : "EitNb3Jlbm8gNDYsIFF1aWxtZXMsIEJ1ZW5vcyBBaXJlcywgQXJnZW50aW5h",
   "types" : [ "street_address" ]
},
{
   "address_components" : [
      {
         "long_name" : "46",
         "short_name" : "46",
         "types" : [ "street_number" ]
      },
      {
         "long_name" : "Moreno",
         "short_name" : "Moreno",
         "types" : [ "route" ]
      },
      {
         "long_name" : "General Juan Madariaga",
         "short_name" : "Gral. Juan Madariaga",
         "types" : [ "locality", "political" ]
      },
      {
         "long_name" : "General Juan Madariaga",
         "short_name" : "Gral Juan Madariaga",
         "types" : [ "administrative_area_level_2", "political" ]
      },
      {
         "long_name" : "Buenos Aires",
         "short_name" : "Buenos Aires",
         "types" : [ "administrative_area_level_1", "political" ]
      },
      {
         "long_name" : "Argentina",
         "short_name" : "AR",
         "types" : [ "country", "political" ]
      },
      {
         "long_name" : "B7163",
         "short_name" : "B7163",
         "types" : [ "postal_code" ]
      },
      {
         "long_name" : "BHB",
         "short_name" : "BHB",
         "types" : [ "postal_code_suffix" ]
      }
   ],
   "formatted_address" : "Moreno 46, B7163BHB Gral. Juan Madariaga, Buenos Aires, Argentina",
   "geometry" : {
      "bounds" : {
         "northeast" : {
            "lat" : -36.9876474,
            "lng" : -57.1431898
         },
         "southwest" : {
            "lat" : -36.9876516,
            "lng" : -57.1432078
         }
      },
      "location" : {
         "lat" : -36.9876474,
         "lng" : -57.1431898
      },
      "location_type" : "RANGE_INTERPOLATED",
      "viewport" : {
         "northeast" : {
            "lat" : -36.9863005197085,
            "lng" : -57.1418498197085
         },
         "southwest" : {
            "lat" : -36.9889984802915,
            "lng" : -57.1445477802915
         }
      }
   },
   "place_id" : "EkFNb3Jlbm8gNDYsIEI3MTYzQkhCIEdyYWwuIEp1YW4gTWFkYXJpYWdhLCBCdWVub3MgQWlyZXMsIEFyZ2VudGluYQ",
   "types" : [ "street_address" ]
  }
]
